FLASER 361 3.727 3.721 3.706 3.701 3.692 3.692 3.726 3.731 3.721 3.711 3.705 3.696 3.556 3.553 3.428 3.42 3.412 3.404 3.395 3.388 3.386 3.377 3.378 3.37 3.37 3.362 3.362 3.362 3.351 3.353 3.351 3.344 3.344 3.342 3.341 3.333 3.333 3.333 3.333 3.332 3.341 3.332 3.332 3.332 3.341 3.341 3.341 3.341 3.349 3.35 3.357 3.349 3.365 3.366 3.371 3.379 3.382 3.374 3.39 3.399 3.403 3.411 3.415 3.419 3.431 3.432 3.445 3.449 3.465 3.468 3.481 3.481 3.499 3.501 3.518 3.525 3.539 3.542 3.562 3.558 3.586 3.588 3.605 3.614 3.636 3.637 3.662 3.662 3.685 3.694 3.72 3.719 3.745 3.754 3.778 3.787 3.811 3.82 3.866 4.023 5.22 5.238 5.28 5.289 5.332 5.349 5.401 5.417 5.459 5.477 5.537 5.545 5.605 5.614 5.678 5.694 5.755 5.774 5.842 5.85 5.927 5.943 6.01 6.035 6.108 6.135 6.211 6.237 6.313 6.34 6.422 6.45 6.538 6.575 6.663 6.695 6.694 6.655 6.581 6.558 6.494 6.467 6.397 6.38 6.322 6.296 6.235 6.212 6.158 6.141 6.083 6.07 6.01 5.993 5.945 5.926 5.878 5.861 5.822 3.641 3.627 3.613 3.595 3.588 3.562 3.554 3.536 3.528 3.511 3.502 3.478 3.478 3.461 3.453 3.437 3.43 3.413 3.405 3.388 3.387 3.371 3.37 3.355 3.346 3.339 3.33 3.323 3.314 3.306 3.306 3.298 3.289 3.281 3.282 3.272 3.273 3.265 3.256 3.256 3.248 3.248 3.24 3.24 3.232 3.224 3.224 3.225 3.225 3.218 3.218 3.215 3.217 3.212 3.214 3.215 3.216 3.214 3.212 3.21 3.261 4.454 4.455 4.49 4.518 5.054 5.054 5.054 5.063 5.037 4.475 4.31 4.313 4.31 4.282 4.331 4.923 5.104 5.104 4.866 4.858 4.629 4.569 4.36 4.343 4.363 4.362 4.385 4.398 4.78 4.724 4.503 4.443 4.312 4.321 4.336 4.344 4.361 4.368 4.387 4.395 4.425 4.75 4.67 4.642 4.547 4.524 4.447 4.467 NaN NaN NaN NaN NaN NaN NaN NaN NaN NaN NaN NaN 5.995 5.963 5.879 5.799 5.759 5.75 5.715 5.699 5.663 5.657 5.629 5.61 5.584 5.577 6.343 6.368 6.436 6.454 6.525 6.542 6.621 4.708 4.64 4.625 4.539 4.524 4.455 4.439 4.369 4.351 4.286 4.268 4.212 4.194 4.138 4.123 4.072 4.055 4.01 3.995 3.942 3.933 3.889 3.881 3.838 3.829 3.787 3.777 3.734 3.734 3.692 3.684 3.651 3.641 3.609 3.61 3.575 3.568 3.54 3.531 3.508 3.5 3.464 3.466 3.433 3.433 3.408 3.41 3.376 3.378 3.352 3.345 3.329 3.321 3.306 3.306 3.281 3.282 3.256 3.256 3.239	 0.536604 -0.437674 -1.002273 	 0.536604 -0.437674 -1.002273 	 0 0 laserazosSM3
FLASER 361 3.832 3.822 3.753 3.743 3.718 3.699 3.683 3.675 3.661 3.654 3.647 3.638 3.645 3.678 3.671 3.672 3.664 3.656 3.639 3.517 3.393 3.374 3.368 3.358 3.349 3.343 3.343 3.332 3.333 3.327 3.327 3.317 3.317 3.31 3.309 3.308 3.299 3.299 3.3 3.3 3.296 3.29 3.29 3.29 3.29 3.29 3.29 3.29 3.29 3.282 3.29 3.291 3.29 3.291 3.299 3.3 3.3 3.299 3.308 3.307 3.315 3.315 3.326 3.325 3.332 3.33 3.349 3.343 3.357 3.355 3.368 3.373 3.389 3.385 3.4 3.397 3.415 3.422 3.434 3.438 3.451 3.451 3.476 3.47 3.492 3.495 3.514 3.523 3.537 3.537 3.561 3.568 3.593 3.592 3.618 3.616 3.64 3.641 3.665 3.673 3.699 3.708 3.732 3.74 3.766 3.783 3.848 5.137 5.185 5.203 5.245 5.252 5.304 5.312 5.364 5.382 5.423 5.441 5.499 5.506 5.569 5.585 5.648 5.655 5.718 5.745 5.796 5.822 5.889 5.907 5.974 5.998 6.081 6.105 6.175 6.202 6.277 6.303 6.396 6.43 6.511 6.545 6.634 6.669 6.645 6.616 6.537 6.511 6.444 6.42 6.356 6.33 6.267 6.248 6.189 6.175 6.12 6.093 6.051 6.024 5.976 5.949 5.903 5.894 5.852 5.834 5.791 5.775 3.604 3.595 3.569 3.562 3.545 3.534 3.511 3.51 3.484 3.477 3.459 3.46 3.434 3.424 3.418 3.41 3.394 3.387 3.369 3.362 3.353 3.345 3.336 3.328 3.321 3.312 3.313 3.305 3.297 3.287 3.279 3.279 3.272 3.262 3.255 3.254 3.245 3.245 3.237 3.237 3.229 3.229 3.221 3.221 3.223 3.213 3.215 3.207 3.209 3.201 3.205 3.208 3.204 3.204 3.204 3.204 3.204 3.2 3.205 3.203 4.443 4.442 4.487 4.526 5.043 5.053 5.052 5.052 5.061 5.051 4.301 4.305 4.31 4.311 4.24 4.284 5.1 5.1 4.856 4.857 4.694 4.629 4.408 4.364 4.354 4.362 4.386 4.393 4.842 4.773 4.568 4.508 4.315 4.317 4.333 4.342 4.358 4.368 4.391 4.392 4.418 4.436 4.702 4.677 4.581 4.555 4.464 4.457 NaN NaN NaN NaN NaN NaN NaN NaN NaN NaN NaN NaN 6.022 5.983 5.907 5.826 5.774 5.767 5.731 5.726 5.688 5.68 5.645 5.645 5.61 5.601 6.374 6.392 6.461 6.477 6.548 6.576 6.646 6.671 4.685 4.649 4.581 4.557 4.489 4.473 4.402 4.386 4.326 4.31 4.244 4.228 4.179 4.155 4.113 4.097 4.047 4.029 3.986 3.977 3.933 3.916 3.878 3.872 3.828 3.819 3.786 3.775 3.734 3.726 3.691 3.684 3.66 3.643 3.617 3.61 3.585 3.575 3.55 3.541 3.508 3.508 3.484 3.475 3.451 3.451 3.418 3.42 3.395 3.396 3.371	 0.546658 -0.453591 -1.010729 	 0.546658 -0.453591 -1.010729 	 0 0 laserazosSM3
FLASER 361 3.884 3.875 3.856 3.839 3.821 3.811 3.792 3.785 3.709 3.692 3.673 3.656 3.648 3.631 3.618 3.61 3.603 3.603 3.601 3.647 3.642 3.634 3.62 3.619 3.606 3.489 3.357 3.324 3.324 3.317 3.307 3.301 3.299 3.292 3.292 3.282 3.281 3.273 3.274 3.265 3.264 3.256 3.266 3.256 3.255 3.246 3.248 3.246 3.239 3.239 3.24 3.24 3.24 3.239 3.24 3.24 3.239 3.24 3.247 3.239 3.248 3.248 3.247 3.257 3.256 3.256 3.264 3.264 3.274 3.277 3.283 3.282 3.29 3.291 3.302 3.309 3.316 3.317 3.325 3.331 3.347 3.347 3.357 3.368 3.383 3.384 3.395 3.399 3.415 3.418 3.437 3.445 3.458 3.457 3.48 3.481 3.502 3.507 3.529 3.537 3.555 3.556 3.581 3.59 3.606 3.614 3.639 3.649 3.671 3.672 3.705 3.713 3.739 3.748 5.112 5.129 5.159 5.176 5.226 5.244 5.287 5.302 5.346 5.364 5.413 5.431 5.482 5.498 5.559 5.576 5.638 5.645 5.707 5.734 5.796 5.821 5.881 5.907 5.972 6.006 6.073 6.105 6.173 6.208 6.284 6.318 6.395 6.429 6.526 6.552 6.649 6.635 6.556 6.531 6.471 6.437 6.378 6.351 6.29 6.261 6.209 6.182 6.13 6.113 6.07 6.045 5.99 5.976 5.917 5.901 5.86 5.842 5.798 5.783 5.742 5.745 3.569 3.558 3.543 3.534 3.517 3.509 3.481 3.474 3.459 3.449 3.434 3.425 3.417 3.409 3.385 3.386 3.368 3.361 3.353 3.344 3.328 3.328 3.321 3.312 3.304 3.296 3.287 3.288 3.279 3.271 3.262 3.261 3.254 3.253 3.245 3.237 3.237 3.228 3.22 3.22 3.22 3.212 3.212 3.205 3.206 3.197 3.198 3.199 3.194 3.196 3.192 3.193 3.196 3.196 3.195 3.194 3.191 3.196 3.191 3.199 3.316 4.44 4.589 4.67 5.042 5.043 5.052 5.052 5.059 4.899 4.308 4.306 4.309 4.307 4.226 4.311 4.954 5.111 4.854 4.847 4.669 4.602 4.4 4.355 4.361 4.37 4.385 4.4 4.826 4.75 4.549 4.493 4.33 4.327 4.35 4.358 4.366 4.376 4.4 4.41 4.425 4.48 4.704 4.669 4.591 4.555 4.474 4.472 NaN NaN NaN NaN NaN NaN NaN NaN NaN NaN NaN NaN 5.995 5.956 5.848 5.826 5.785 5.774 5.74 5.73 5.697 5.691 5.662 5.646 5.629 5.751 6.425 6.452 6.511 6.539 6.612 6.637 6.706 4.757 4.685 4.66 4.591 4.566 4.496 4.482 4.422 4.403 4.345 4.319 4.27 4.245 4.197 4.18 4.13 4.114 4.063 4.054 4.013 3.995 3.951 3.942 3.9 3.891 3.857 3.849 3.813 3.804 3.771 3.762 3.727 3.719 3.686 3.678 3.653 3.638 3.615 3.605 3.579 3.571 3.545 3.536 3.512	 0.556442 -0.469361 -1.019185 	 0.556442 -0.469361 -1.019185 	 0 0 laserazosSM3
FLASER 361 3.865 3.855 3.841 3.83 3.865 3.865 3.844 3.826 3.809 3.8 3.781 3.771 3.755 3.746 3.665 3.638 3.622 3.612 3.598 3.59 3.573 3.564 3.558 3.547 3.6 3.614 3.604 3.596 3.594 3.584 3.58 3.438 3.306 3.281 3.273 3.272 3.264 3.256 3.255 3.247 3.247 3.231 3.229 3.231 3.23 3.222 3.215 3.214 3.206 3.206 3.208 3.199 3.199 3.194 3.197 3.188 3.197 3.188 3.188 3.188 3.197 3.188 3.187 3.188 3.197 3.197 3.197 3.197 3.197 3.206 3.206 3.206 3.214 3.213 3.227 3.222 3.233 3.232 3.239 3.241 3.253 3.251 3.266 3.27 3.285 3.285 3.292 3.295 3.311 3.31 3.327 3.333 3.342 3.346 3.361 3.363 3.382 3.38 3.396 3.399 3.418 3.419 3.44 3.452 3.471 3.479 3.495 3.504 3.521 3.528 3.545 3.555 3.58 3.579 3.605 3.612 3.637 3.647 3.671 3.681 3.712 3.826 5.094 5.103 5.151 5.168 5.209 5.226 5.268 5.286 5.337 5.355 5.403 5.421 5.472 5.498 5.55 5.568 5.628 5.644 5.708 5.725 5.796 5.821 5.888 5.915 5.981 6.005 6.079 6.104 6.19 6.218 6.294 6.328 6.42 6.446 6.545 6.571 6.576 6.555 6.477 6.457 6.385 6.37 6.302 6.277 6.225 6.2 6.157 6.122 6.07 6.052 6.001 5.983 5.926 5.906 5.859 5.85 5.812 5.791 5.748 5.731 5.725 3.547 3.542 3.533 3.508 3.5 3.481 3.475 3.457 3.448 3.434 3.425 3.409 3.401 3.385 3.385 3.369 3.359 3.344 3.344 3.327 3.328 3.312 3.312 3.296 3.286 3.287 3.278 3.27 3.27 3.261 3.253 3.244 3.244 3.236 3.237 3.228 3.22 3.22 3.211 3.212 3.204 3.195 3.204 3.196 3.197 3.189 3.19 3.183 3.186 3.181 3.182 3.185 3.185 3.176 3.186 3.181 3.19 3.185 3.183 3.189 3.188 3.21 NaN 4.689 4.862 5.042 5.011 5.051 5.042 5.05 4.689 4.301 4.309 4.311 4.301 4.243 4.428 4.971 5.084 4.847 4.847 4.636 4.575 4.378 4.362 4.369 4.377 4.393 4.415 4.785 4.722 4.526 4.469 4.331 4.343 4.359 4.368 4.383 4.391 4.417 4.426 4.447 4.785 4.697 4.661 4.588 4.556 4.475 4.515 NaN NaN NaN NaN NaN NaN NaN NaN NaN NaN NaN 6.087 5.98 5.968 5.843 5.826 5.792 5.786 5.749 5.74 5.707 5.699 5.672 5.662 5.87 6.417 6.478 6.503 6.575 6.601 6.671 6.706 4.771 4.757 4.686 4.669 4.592 4.576 4.507 4.49 4.43 4.413 4.353 4.336 4.279 4.262 4.205 4.197 4.149 4.14 4.091 4.073 4.03 4.015 3.979 3.963 3.928 3.919 3.885 3.876 3.833 3.824 3.789 3.779 3.756 3.749 3.716 3.7 3.674	 0.566105 -0.485206 -1.025861 	 0.566105 -0.485206 -1.025861 	 0 0 laserazosSM3
FLASER 361 4.807 4.824 4.857 4.882 4.918 4.952 4.984 5.011 5.053 5.085 5.117 5.151 5.193 5.225 5.269 5.302 4.308 4.276 4.235 4.224 4.184 4.101 4.066 4.028 3.989 3.945 3.881 3.857 3.819 3.78 3.799 3.608 3.579 3.542 3.507 3.48 3.453 3.437 3.422 3.396 3.39 3.375 3.564 3.749 3.734 3.715 3.765 3.734 3.47 3.456 3.451 3.428 3.421 3.348 3.241 3.224 3.174 3.159 3.14 3.142 3.132 3.133 3.187 3.435 3.755 4.011 3.852 4.01 3.369 3.365 3.346 2.932 2.763 2.737 2.726 2.718 2.711 2.702 2.703 2.694 2.685 2.676 2.676 2.668 2.659 2.651 2.651 2.633 2.642 2.633 2.633 2.625 2.624 2.616 2.608 2.607 2.607 2.594 2.594 2.595 2.586 2.585 2.586 2.578 2.586 2.578 2.586 2.578 2.578 2.578 2.578 2.569 2.578 2.578 2.578 2.578 2.578 2.578 2.578 2.578 2.586 2.586 2.586 2.585 2.601 2.605 2.612 2.612 2.612 2.612 2.625 2.617 2.634 2.633 2.641 2.641 2.65 2.65 2.667 2.668 2.675 2.675 2.692 2.691 2.708 2.712 2.722 2.714 2.738 2.739 2.748 2.754 2.771 2.768 2.786 2.788 2.803 2.805 2.826 2.831 2.849 2.852 2.879 2.882 2.897 2.906 2.923 2.929 2.949 2.956 2.974 2.983 3.001 3.008 3.026 3.035 3.061 3.068 3.094 3.103 4.525 4.543 4.577 4.594 4.645 4.662 4.705 4.721 4.767 4.783 4.837 4.854 4.897 4.914 4.965 4.991 5.048 5.074 5.131 5.155 5.221 5.248 5.308 5.341 5.4 5.437 5.502 5.536 5.607 5.643 5.713 5.758 5.834 5.876 5.961 6.002 6.093 6.099 6.052 6.016 5.966 5.936 5.894 5.87 5.82 5.793 5.757 5.731 5.699 5.672 5.637 5.619 5.583 5.554 5.529 5.507 5.475 5.456 5.424 5.406 5.385 5.365 5.34 5.326 5.302 5.317 5.281 5.272 5.256 5.24 5.221 5.206 3.159 3.164 3.156 3.145 3.139 3.129 3.13 3.121 3.112 3.104 3.094 3.095 3.085 3.078 3.077 3.069 3.067 3.06 3.06 3.052 3.053 3.043 3.043 3.043 3.036 3.026 3.026 3.027 3.019 3.021 3.014 3.016 3.019 3.012 3.015 3.016 3.017 3.017 3.012 3.011 3.017 3.015 3.021 3.02 3.027 3.027 3.026 3.036 3.035 3.043 3.043 3.042 3.052 3.051 3.06 3.06 3.069 3.069 3.079 3.078 3.087 3.094 3.103 3.104 3.112 3.121 3.13 3.146 4.637 4.512 4.29 4.277 4.29 4.297 4.325 4.268 4.477 4.381 4.355 4.357 4.379 4.54 4.44 4.402 4.414 4.43 4.454 4.474 4.758 4.695 4.583 4.523 4.433 4.438 4.464 4.473 4.499 4.516 4.54 4.567 4.864 4.839 4.777 4.745 4.681 4.667 NaN NaN NaN	 0.613289 -0.56665 -1.063691 	 0.613289 -0.56665 -1.063691 	 0 0 laserazosSM3
FLASER 361 4.726 4.763 4.788 4.815 4.851 4.865 4.909 4.934 4.96 4.994 5.027 5.06 5.092 5.134 5.168 5.201 5.242 5.276 4.162 4.127 NaN 5.333 4.16 4.069 4.033 3.987 3.931 3.888 3.843 3.817 3.778 3.749 3.609 3.558 3.523 3.487 3.447 3.433 3.415 3.4 3.38 3.356 3.343 3.415 3.719 3.699 3.686 3.68 3.744 3.733 3.463 3.427 3.433 3.409 3.392 3.373 3.329 3.313 3.265 3.233 3.224 3.239 3.229 3.255 3.297 3.548 3.709 3.836 3.758 3.942 3.313 3.307 3.29 2.843 2.693 2.675 2.675 2.668 2.659 2.65 2.64 2.632 2.632 2.615 2.615 2.597 2.598 2.59 2.581 2.581 2.582 2.573 2.573 2.558 2.564 2.549 2.548 2.541 2.548 2.535 2.535 2.528 2.528 2.52 2.528 2.52 2.52 2.512 2.52 2.512 2.512 2.512 2.512 2.512 2.512 2.503 2.513 2.513 2.512 2.512 2.513 2.512 2.52 2.52 2.52 2.52 2.525 2.538 2.539 2.539 2.544 2.544 2.556 2.55 2.558 2.558 2.573 2.573 2.581 2.58 2.589 2.589 2.606 2.606 2.614 2.621 2.63 2.634 2.641 2.644 2.654 2.666 2.669 2.67 2.686 2.694 2.702 2.706 2.726 2.728 2.739 2.745 2.762 2.763 2.781 2.784 2.816 2.812 2.83 2.837 2.852 2.86 2.878 2.887 2.911 2.912 2.937 2.947 2.963 2.972 2.998 3.006 3.033 3.033 3.098 4.483 4.516 4.534 4.576 4.601 4.636 4.66 4.703 4.721 4.765 4.793 4.836 4.862 4.905 4.941 4.982 5.016 5.065 5.099 5.155 5.19 5.247 5.273 5.342 5.377 5.443 5.477 5.545 5.588 5.66 5.704 5.773 5.818 5.901 5.943 6.034 6.049 5.999 5.961 5.918 5.885 5.843 5.81 5.777 5.751 5.717 5.689 5.654 5.627 5.592 5.564 5.547 5.521 5.489 5.465 5.432 5.406 5.39 5.364 5.347 5.321 5.305 5.288 5.263 5.272 5.256 5.239 5.223 5.207 5.181 5.173 5.146 5.139 3.13 3.12 3.113 3.103 3.095 3.094 3.085 3.077 3.066 3.067 3.058 3.051 3.051 3.041 3.041 3.034 3.034 3.024 3.024 3.016 3.016 3.008 3.009 2.999 3.0 3.001 3.002 2.995 2.998 2.994 2.996 2.987 3.0 2.99 2.989 2.987 2.995 2.994 2.997 2.996 2.994 3.001 3.0 2.999 3.009 3.008 3.016 3.016 3.024 3.025 3.035 3.034 3.034 3.042 3.052 3.051 3.06 3.06 3.069 3.078 3.079 3.087 3.095 3.094 3.112 3.114 3.132 3.157 4.396 4.315 4.284 4.29 4.295 4.309 4.303 4.432 4.342 4.341 4.352 4.362 4.525 4.478 4.412 4.423 4.439 4.455 4.513 4.74 4.651 4.591 4.518 4.466 4.455 4.473 4.49 4.506 4.532 4.548 4.583 4.612 4.834 4.807 4.754	 0.651426 -0.637401 -1.088614 	 0.651426 -0.637401 -1.088614 	 0 0 laserazosSM3
FLASER 361 4.693 4.718 4.746 4.762 4.788 4.816 4.849 4.874 4.909 4.934 4.959 5.002 5.035 5.068 5.093 5.127 5.168 5.201 5.234 5.275 5.319 5.351 5.316 4.162 4.067 4.029 3.986 3.95 3.916 3.858 3.8 3.77 3.756 3.558 3.532 3.496 3.44 3.426 3.43 3.415 3.406 3.364 3.339 3.342 3.546 3.677 3.656 3.633 3.636 3.695 3.695 3.488 3.42 3.413 3.42 3.384 3.383 3.334 3.348 3.323 3.307 3.28 3.271 3.253 3.259 3.267 3.479 3.566 3.577 3.655 3.82 3.262 3.258 3.238 2.754 2.631 2.622 2.614 2.605 2.597 2.588 2.58 2.572 2.563 2.563 2.548 2.547 2.54 2.531 2.523 2.523 2.515 2.507 2.507 2.498 2.491 2.491 2.481 2.482 2.474 2.475 2.47 2.462 2.462 2.462 2.453 2.453 2.445 2.445 2.445 2.446 2.436 2.445 2.436 2.446 2.437 2.446 2.437 2.446 2.437 2.447 2.437 2.446 2.446 2.446 2.446 2.453 2.446 2.451 2.461 2.472 2.464 2.479 2.471 2.481 2.474 2.482 2.482 2.49 2.49 2.507 2.498 2.514 2.514 2.53 2.53 2.539 2.539 2.555 2.555 2.573 2.564 2.576 2.584 2.59 2.59 2.609 2.607 2.623 2.632 2.639 2.647 2.667 2.663 2.684 2.685 2.704 2.704 2.715 2.729 2.747 2.752 2.771 2.779 2.793 2.793 2.817 2.826 2.843 2.85 2.876 2.884 2.899 2.909 2.935 2.944 2.97 2.979 4.413 4.431 4.475 4.491 4.524 4.542 4.583 4.609 4.65 4.677 4.721 4.748 4.791 4.818 4.862 4.896 4.948 4.971 5.023 5.057 5.104 5.137 5.196 5.229 5.297 5.332 5.4 5.434 5.51 5.544 5.614 5.659 5.739 5.783 5.858 5.919 5.989 5.969 5.919 5.884 5.841 5.819 5.776 5.742 5.715 5.681 5.644 5.618 5.591 5.565 5.537 5.513 5.478 5.459 5.432 5.404 5.381 5.356 5.331 5.314 5.296 5.279 5.254 5.235 5.212 5.224 5.205 5.189 5.172 5.156 5.14 5.123 5.107 5.09 3.102 3.108 3.077 3.067 3.068 3.058 3.051 3.05 3.041 3.033 3.023 3.023 3.015 3.015 3.007 3.007 2.998 2.997 2.998 2.998 2.991 2.991 2.983 2.973 2.974 2.967 2.969 2.962 2.967 2.969 2.972 2.963 2.963 2.963 2.97 2.968 2.974 2.97 2.969 2.967 2.974 2.974 2.983 2.982 2.991 2.99 2.998 2.998 2.997 2.998 3.007 3.008 3.024 3.016 3.024 3.033 3.042 3.043 3.052 3.052 3.06 3.07 3.079 3.079 3.095 3.095 3.113 3.112 3.135 4.316 4.288 4.274 4.298 4.303 4.31 4.311 4.329 4.336 4.353 4.359 4.529 4.489 4.416 4.413 4.426 4.422 4.446 4.452 4.473 4.464 4.517 4.518 4.457 4.472 4.49 4.508 4.533 4.558 4.583	 0.686375 -0.705307 -1.099296 	 0.686375 -0.705307 -1.099296 	 0 0 laserazosSM3
FLASER 361 4.693 4.719 4.736 4.772 4.789 4.824 4.851 4.876 4.902 4.936 4.96 4.986 5.029 5.051 5.094 5.128 5.16 5.193 4.327 4.254 4.286 3.966 4.207 3.996 3.983 3.936 3.889 3.827 3.791 3.747 3.717 3.688 3.545 3.482 3.444 3.41 3.384 3.359 3.327 3.311 3.296 3.269 3.268 3.349 3.645 3.62 3.606 3.594 3.629 3.492 3.367 3.335 3.327 3.303 3.289 3.195 3.165 3.105 3.089 3.047 3.053 3.053 3.053 3.097 3.174 3.319 3.527 3.665 3.865 3.725 3.268 3.208 3.196 2.691 2.578 2.563 2.563 2.556 2.547 2.53 2.53 2.514 2.515 2.498 2.498 2.49 2.49 2.474 2.474 2.458 2.466 2.449 2.449 2.441 2.441 2.432 2.432 2.424 2.424 2.416 2.411 2.404 2.403 2.403 2.395 2.394 2.397 2.388 2.396 2.387 2.389 2.38 2.38 2.37 2.381 2.38 2.379 2.38 2.381 2.381 2.38 2.381 2.379 2.38 2.39 2.38 2.389 2.38 2.387 2.398 2.398 2.398 2.405 2.404 2.405 2.408 2.418 2.417 2.425 2.424 2.432 2.432 2.441 2.44 2.448 2.448 2.457 2.465 2.48 2.48 2.489 2.492 2.499 2.5 2.517 2.516 2.524 2.533 2.541 2.548 2.563 2.569 2.577 2.589 2.604 2.599 2.616 2.621 2.636 2.643 2.661 2.671 2.686 2.695 2.711 2.71 2.725 2.733 2.751 2.757 2.775 2.784 2.808 2.816 2.831 2.849 2.873 2.882 2.899 2.938 4.354 4.378 4.405 4.431 4.464 4.492 4.524 4.55 4.592 4.617 4.66 4.686 4.729 4.766 4.808 4.836 4.886 4.913 4.965 4.998 5.056 5.088 5.137 5.179 5.236 5.281 5.341 5.383 5.451 5.494 5.57 5.605 5.677 5.729 5.807 5.86 5.938 5.899 5.862 5.82 5.787 5.752 5.717 5.691 5.654 5.632 5.593 5.569 5.54 5.506 5.487 5.462 5.433 5.412 5.383 5.367 5.331 5.315 5.287 5.265 5.252 5.232 5.211 5.197 5.171 5.165 5.165 5.147 5.133 5.116 5.098 5.081 5.065 5.057 5.039 5.023 3.064 3.032 3.034 3.024 3.015 3.007 3.008 2.997 2.998 2.989 2.989 2.98 2.981 2.97 2.971 2.963 2.963 2.955 2.955 2.946 2.947 2.947 2.948 2.942 2.946 2.94 2.943 2.937 2.937 2.939 2.938 2.937 2.944 2.94 2.936 2.942 2.941 2.948 2.947 2.946 2.956 2.955 2.964 2.964 2.963 2.971 2.981 2.981 2.981 2.99 2.998 2.998 3.007 3.008 3.016 3.016 3.024 3.035 3.043 3.043 3.053 3.06 3.07 3.08 3.086 3.095 3.105 3.114 3.16 4.289 4.271 4.291 4.295 4.316 4.323 4.365 4.349 4.35 4.362 4.393 4.51 4.452 4.418 4.43 4.455 4.48 4.771 4.691 4.612 4.569 4.502 4.458 4.484 4.5 4.525	 0.722004 -0.775715 -1.103301 	 0.722004 -0.775715 -1.103301 	 0 0 laserazosSM3
FLASER 361 4.712 4.748 4.764 4.789 4.816 4.843 4.868 4.902 4.928 4.955 4.988 5.021 5.054 5.078 5.112 5.143 5.169 4.149 4.119 4.08 4.06 3.978 3.935 3.919 3.879 3.839 3.772 3.726 3.698 3.656 3.66 3.475 3.44 3.399 3.366 3.333 3.311 3.287 3.271 3.252 3.247 3.243 3.622 3.602 3.58 3.567 3.574 3.408 3.306 3.287 3.267 3.248 3.147 3.024 2.992 2.966 2.939 2.922 2.907 2.897 2.889 2.903 2.918 3.167 3.403 3.495 3.541 3.599 3.582 3.16 3.158 2.638 2.538 2.529 2.515 2.507 2.497 2.49 2.48 2.473 2.465 2.457 2.449 2.441 2.432 2.424 2.425 2.408 2.407 2.4 2.4 2.39 2.391 2.383 2.382 2.374 2.374 2.357 2.358 2.345 2.345 2.344 2.344 2.336 2.346 2.328 2.328 2.327 2.329 2.32 2.32 2.312 2.311 2.314 2.312 2.313 2.313 2.313 2.312 2.313 2.321 2.313 2.313 2.313 2.321 2.32 2.32 2.32 2.327 2.332 2.339 2.331 2.347 2.338 2.348 2.342 2.351 2.351 2.358 2.356 2.366 2.366 2.374 2.383 2.39 2.39 2.399 2.398 2.406 2.415 2.422 2.427 2.433 2.431 2.447 2.45 2.459 2.46 2.475 2.481 2.49 2.494 2.505 2.515 2.523 2.531 2.546 2.551 2.559 2.568 2.58 2.592 2.61 2.617 2.634 2.634 2.649 2.667 2.675 2.691 2.7 2.707 2.724 2.741 2.759 2.765 2.79 2.79 2.816 2.83 2.935 4.288 4.311 4.337 4.372 4.396 4.432 4.457 4.49 4.525 4.559 4.583 4.625 4.66 4.703 4.739 4.774 4.809 4.854 4.895 4.939 4.981 5.031 5.072 5.122 5.171 5.222 5.272 5.323 5.375 5.435 5.483 5.553 5.606 5.677 5.731 5.799 5.86 5.845 5.804 5.768 5.735 5.701 5.665 5.636 5.604 5.575 5.533 5.513 5.489 5.46 5.429 5.412 5.388 5.362 5.333 5.316 5.28 5.272 5.248 5.23 5.195 5.19 5.163 5.146 5.131 5.115 5.116 5.108 5.092 5.075 5.058 5.041 5.025 5.017 4.999 4.991 4.972 2.998 2.988 2.99 2.98 2.981 2.97 2.962 2.954 2.955 2.944 2.944 2.944 2.944 2.937 2.928 2.928 2.929 2.92 2.921 2.913 2.914 2.915 2.908 2.903 2.907 2.909 2.912 2.905 2.913 2.904 2.912 2.908 2.906 2.909 2.906 2.906 2.913 2.913 2.921 2.92 2.929 2.929 2.929 2.928 2.937 2.945 2.945 2.945 2.955 2.955 2.964 2.964 2.981 2.981 2.991 2.991 2.999 3.009 3.016 3.016 3.026 3.036 3.043 3.053 3.061 3.069 3.078 3.094 3.106 3.121 4.262 4.272 4.29 4.302 4.225 4.4 4.34 4.334 4.354 4.372 4.53 4.466 4.42 4.425 4.449 4.464 4.553 4.719 4.64 4.588 4.523 4.467 4.485	 0.757143 -0.844573 -1.092175 	 0.757143 -0.844573 -1.092175 	 0 0 laserazosSM3
FLASER 361 4.782 4.807 4.834 4.869 4.885 4.919 4.935 4.973 4.997 5.038 5.063 5.095 5.12 5.163 4.122 4.073 4.041 4.002 3.97 3.904 3.884 3.835 3.813 3.726 3.708 3.664 3.638 3.512 3.466 3.415 3.382 3.343 3.311 3.291 3.272 3.247 3.239 3.211 3.22 3.595 3.582 3.551 3.537 3.555 3.343 3.262 3.254 3.225 3.219 2.997 2.966 2.932 2.916 2.892 2.875 2.861 2.858 2.843 2.844 2.888 3.115 3.376 3.399 3.379 3.49 3.208 3.123 2.745 2.53 2.489 2.489 2.472 2.464 2.455 2.446 2.439 2.43 2.423 2.415 2.406 2.398 2.389 2.39 2.373 2.373 2.365 2.357 2.349 2.348 2.332 2.331 2.323 2.323 2.313 2.314 2.303 2.31 2.293 2.302 2.285 2.285 2.286 2.286 2.277 2.277 2.268 2.267 2.268 2.269 2.26 2.269 2.26 2.268 2.261 2.27 2.261 2.262 2.261 2.261 2.261 2.26 2.261 2.26 2.26 2.26 2.27 2.272 2.271 2.28 2.28 2.28 2.28 2.29 2.284 2.291 2.291 2.3 2.299 2.306 2.306 2.314 2.314 2.323 2.323 2.331 2.339 2.348 2.348 2.354 2.361 2.366 2.367 2.383 2.383 2.391 2.392 2.401 2.407 2.424 2.426 2.435 2.448 2.457 2.457 2.472 2.476 2.495 2.495 2.516 2.524 2.542 2.54 2.558 2.564 2.573 2.59 2.596 2.606 2.621 2.63 2.648 2.657 2.679 2.69 2.705 2.714 2.73 2.747 2.765 2.839 4.214 4.237 4.272 4.305 4.327 4.362 4.387 4.421 4.448 4.483 4.514 4.55 4.592 4.624 4.661 4.703 4.737 4.782 4.818 4.862 4.904 4.947 4.988 5.039 5.087 5.129 5.179 5.228 5.289 5.341 5.399 5.457 5.519 5.58 5.641 5.702 5.773 5.792 5.762 5.719 5.69 5.646 5.619 5.585 5.56 5.522 5.507 5.462 5.447 5.41 5.397 5.361 5.338 5.31 5.293 5.273 5.247 5.219 5.202 5.177 5.163 5.136 5.13 5.105 5.088 5.065 5.058 5.059 5.049 5.033 5.024 4.999 4.99 4.974 4.964 4.948 4.939 4.922 4.914 3.006 2.944 2.936 2.927 2.918 2.918 2.909 2.909 2.901 2.901 2.892 2.901 2.893 2.893 2.885 2.886 2.877 2.878 2.871 2.872 2.865 2.868 2.863 2.866 2.869 2.869 2.862 2.869 2.867 2.864 2.861 2.866 2.864 2.871 2.871 2.878 2.877 2.885 2.885 2.894 2.894 2.902 2.901 2.901 2.901 2.91 2.91 2.919 2.928 2.928 2.937 2.945 2.945 2.955 2.955 2.964 2.972 2.982 2.99 2.998 2.998 3.008 3.016 3.035 3.035 3.052 3.06 3.069 3.079 3.094 4.244 4.257 4.273 4.29 4.264 4.355 4.321 4.327 4.346 4.386 4.499 4.432 4.412 4.423 4.448 4.481 4.772 4.693 4.633 4.566 4.506 4.461	 0.792565 -0.911478 -1.074817 	 0.792565 -0.911478 -1.074817 	 0 0 laserazosSM3
FLASER 361 4.87 4.913 4.929 4.963 4.98 5.021 5.046 5.081 5.097 5.146 4.18 4.102 4.083 4.032 4.025 3.892 3.911 3.853 3.833 3.744 3.723 3.675 3.647 3.496 3.457 3.399 3.366 3.327 3.312 3.274 3.254 3.229 3.22 3.199 3.23 3.589 3.574 3.544 3.531 3.546 3.361 3.259 3.244 3.211 3.196 2.976 2.958 2.911 2.902 2.87 2.869 2.836 2.851 2.825 2.856 3.001 3.146 3.352 3.393 3.492 3.649 3.18 3.108 2.492 2.47 2.454 2.446 2.43 2.429 2.414 2.414 2.397 2.397 2.38 2.381 2.364 2.355 2.348 2.348 2.331 2.33 2.313 2.313 2.306 2.306 2.297 2.298 2.281 2.281 2.272 2.272 2.259 2.259 2.251 2.251 2.242 2.241 2.242 2.241 2.233 2.233 2.224 2.225 2.215 2.214 2.216 2.216 2.216 2.216 2.207 2.217 2.208 2.207 2.208 2.207 2.209 2.208 2.208 2.208 2.208 2.217 2.21 2.224 2.219 2.219 2.218 2.227 2.227 2.228 2.231 2.231 2.23 2.239 2.237 2.247 2.247 2.254 2.254 2.254 2.262 2.272 2.271 2.279 2.287 2.288 2.298 2.303 2.306 2.312 2.317 2.323 2.323 2.334 2.341 2.348 2.356 2.364 2.373 2.379 2.39 2.399 2.406 2.411 2.422 2.427 2.434 2.447 2.462 2.478 2.484 2.492 2.508 2.515 2.522 2.539 2.55 2.562 2.569 2.585 2.595 2.61 2.62 2.636 2.653 2.661 2.679 2.695 2.825 4.147 4.173 4.196 4.223 4.254 4.288 4.311 4.345 4.379 4.403 4.439 4.471 4.507 4.55 4.575 4.617 4.659 4.692 4.728 4.782 4.816 4.861 4.903 4.946 4.989 5.046 5.088 5.136 5.194 5.244 5.296 5.357 5.408 5.476 5.534 5.605 5.667 5.736 5.728 5.672 5.647 5.602 5.576 5.538 5.522 5.481 5.455 5.412 5.403 5.363 5.345 5.32 5.302 5.267 5.25 5.221 5.21 5.176 5.161 5.128 5.121 5.095 5.08 5.052 5.045 5.021 5.016 4.992 5.009 4.981 4.975 4.956 4.949 4.932 4.922 4.904 4.895 4.879 4.87 4.854 4.854 2.899 2.883 2.874 2.875 2.867 2.867 2.858 2.849 2.849 2.849 2.842 2.842 2.833 2.833 2.825 2.825 2.819 2.82 2.814 2.816 2.819 2.821 2.816 2.818 2.819 2.819 2.816 2.823 2.82 2.816 2.814 2.82 2.827 2.826 2.825 2.834 2.833 2.842 2.842 2.849 2.842 2.85 2.858 2.858 2.867 2.875 2.874 2.884 2.884 2.893 2.901 2.9 2.91 2.919 2.919 2.927 2.937 2.945 2.955 2.963 2.971 2.982 2.99 2.997 3.007 3.016 3.024 3.034 3.042 3.06 3.088 4.232 4.249 4.266 4.249 4.312 4.291 4.31 4.329 4.36 4.475 4.418 4.393 4.405 4.43 4.452 4.643 4.598 4.564 4.539 4.491 4.451	 0.83465 -0.986149 -1.040993 	 0.83465 -0.986149 -1.040993 	 0 0 laserazosSM3
FLASER 361 5.031 5.072 5.097 5.13 5.146 4.074 4.051 3.986 3.965 3.89 3.86 3.815 3.797 3.739 3.707 3.655 3.632 3.569 3.479 3.409 3.385 3.337 3.315 3.275 3.258 3.232 3.214 3.194 3.198 3.37 3.4 3.386 3.455 3.428 3.294 3.231 3.221 3.179 3.005 2.922 2.912 2.87 2.869 2.839 2.829 2.805 2.795 2.784 2.785 2.9 3.151 3.029 2.998 3.08 3.212 3.074 3.047 2.443 2.436 2.42 2.42 2.404 2.396 2.388 2.38 2.363 2.354 2.346 2.346 2.33 2.321 2.312 2.305 2.305 2.296 2.287 2.279 2.271 2.262 2.253 2.253 2.245 2.245 2.237 2.231 2.214 2.214 2.214 2.215 2.207 2.205 2.188 2.199 2.187 2.188 2.18 2.179 2.17 2.17 2.172 2.171 2.162 2.161 2.162 2.163 2.163 2.162 2.154 2.163 2.154 2.162 2.155 2.155 2.155 2.155 2.162 2.172 2.166 2.165 2.165 2.165 2.164 2.165 2.169 2.168 2.168 2.177 2.175 2.184 2.184 2.194 2.193 2.202 2.201 2.21 2.201 2.21 2.218 2.227 2.227 2.235 2.237 2.246 2.238 2.251 2.254 2.263 2.264 2.274 2.281 2.289 2.303 2.304 2.306 2.313 2.322 2.33 2.336 2.344 2.36 2.369 2.373 2.385 2.394 2.408 2.416 2.423 2.433 2.441 2.449 2.466 2.473 2.488 2.497 2.513 2.521 2.536 2.553 2.561 2.577 2.592 2.602 2.617 2.711 4.064 4.089 4.114 4.147 4.172 4.195 4.222 4.252 4.278 4.309 4.344 4.386 4.411 4.455 4.481 4.524 4.547 4.59 4.632 4.677 4.71 4.754 4.799 4.843 4.886 4.928 4.97 5.029 5.071 5.129 5.178 5.244 5.288 5.357 5.407 5.475 5.534 5.605 5.657 5.629 5.602 5.557 5.539 5.495 5.481 5.428 5.412 5.372 5.362 5.319 5.302 5.27 5.25 5.224 5.206 5.175 5.155 5.128 5.109 5.086 5.069 5.044 5.031 5.006 4.999 4.971 4.964 4.941 4.931 4.932 4.925 4.913 4.905 4.88 4.88 4.853 4.844 4.826 4.827 4.809 4.801 4.784 4.783 2.886 2.822 2.807 2.807 2.799 2.799 2.791 2.8 2.783 2.791 2.783 2.784 2.775 2.776 2.767 2.768 2.761 2.762 2.759 2.77 2.764 2.767 2.759 2.759 2.759 2.766 2.762 2.76 2.764 2.762 2.761 2.768 2.767 2.775 2.775 2.783 2.783 2.791 2.791 2.791 2.8 2.807 2.807 2.807 2.807 2.816 2.823 2.832 2.832 2.84 2.849 2.849 2.858 2.867 2.875 2.884 2.883 2.9 2.901 2.91 2.919 2.927 2.936 2.945 2.954 2.97 2.981 2.989 2.997 3.015 3.015 3.033 4.205 4.222 4.211 4.257 4.308 4.289 4.292 4.31 4.484 4.435 4.374 4.372 4.396 4.421 4.453 4.711 4.635 4.574 4.506 4.456 4.439 4.466	 0.881515 -1.062655 -1.002718 	 0.881515 -1.062655 -1.002718 	 0 0 laserazosSM3
FLASER 361 4.058 3.998 3.972 3.898 3.882 3.821 3.794 3.739 3.712 3.659 3.632 3.516 3.476 3.403 3.389 3.333 3.31 3.272 3.261 3.233 3.216 3.213 3.264 3.265 3.252 3.234 3.237 3.195 3.198 3.173 3.165 2.96 2.936 2.901 2.884 2.852 2.842 2.811 2.812 2.785 2.778 2.773 2.774 3.222 3.255 2.884 2.88 2.899 2.879 2.438 2.427 2.41 2.411 2.395 2.387 2.368 2.362 2.345 2.346 2.328 2.321 2.304 2.304 2.296 2.288 2.27 2.271 2.253 2.253 2.245 2.246 2.227 2.227 2.219 2.209 2.21 2.202 2.187 2.188 2.18 2.181 2.163 2.163 2.155 2.163 2.145 2.145 2.145 2.146 2.137 2.137 2.128 2.13 2.13 2.121 2.12 2.121 2.122 2.121 2.113 2.113 2.113 2.113 2.113 2.113 2.103 2.114 2.103 2.107 2.113 2.113 2.113 2.113 2.113 2.113 2.115 2.118 2.117 2.117 2.117 2.117 2.121 2.123 2.132 2.132 2.131 2.14 2.14 2.14 2.149 2.157 2.157 2.166 2.163 2.184 2.166 2.184 2.178 2.191 2.194 2.202 2.203 2.213 2.211 2.22 2.224 2.234 2.236 2.252 2.254 2.263 2.272 2.271 2.288 2.295 2.292 2.306 2.324 2.329 2.335 2.343 2.349 2.367 2.375 2.382 2.391 2.409 2.416 2.422 2.432 2.449 2.457 2.473 2.479 2.495 2.511 2.52 2.536 2.558 3.969 3.988 4.02 4.038 4.072 4.099 4.123 4.148 4.181 4.205 4.246 4.261 4.303 4.335 4.37 4.403 4.446 4.472 4.514 4.549 4.592 4.625 4.676 4.711 4.756 4.791 4.843 4.887 4.937 4.981 5.039 5.081 5.146 5.188 5.253 5.305 5.374 5.424 5.499 5.554 5.569 5.551 5.495 5.479 5.429 5.403 5.37 5.354 5.312 5.294 5.252 5.244 5.209 5.192 5.158 5.142 5.109 5.092 5.063 5.056 5.022 5.014 4.988 4.972 4.948 4.939 4.907 4.898 4.88 4.872 4.849 4.862 4.847 4.846 4.82 4.818 4.792 4.784 4.776 4.766 4.748 4.738 4.721 4.721 4.704 4.703 2.768 2.748 2.74 2.74 2.731 2.731 2.723 2.723 2.715 2.716 2.707 2.716 2.708 2.709 2.703 2.703 2.7 2.702 2.697 2.708 2.701 2.702 2.7 2.709 2.696 2.704 2.7 2.707 2.702 2.71 2.708 2.708 2.707 2.716 2.715 2.723 2.723 2.723 2.732 2.732 2.74 2.741 2.748 2.757 2.757 2.757 2.765 2.774 2.774 2.783 2.791 2.8 2.8 2.808 2.816 2.824 2.832 2.842 2.85 2.859 2.868 2.875 2.894 2.901 2.9 2.919 2.928 2.936 2.944 2.963 2.97 2.979 2.997 4.189 4.198 4.149 4.28 4.257 4.259 4.267 4.342 4.419 4.344 4.344 4.362 4.387 4.417 4.695 4.617 4.567 4.5 4.448 4.404 4.429 4.455 4.483	 0.927505 -1.131479 -0.966223 	 0.927505 -1.131479 -0.966223 	 0 0 laserazosSM3
FLASER 361 3.783 3.721 3.696 3.644 3.618 3.477 3.445 3.38 3.356 3.31 3.296 3.261 3.25 3.225 3.214 3.274 3.258 3.219 3.214 3.194 3.17 3.157 3.14 2.991 2.954 2.919 2.893 2.868 2.851 2.827 2.812 2.789 2.788 2.766 2.755 3.065 3.151 2.867 2.856 2.851 2.824 2.421 2.424 2.398 2.391 2.375 2.373 2.349 2.35 2.335 2.327 2.309 2.301 2.293 2.284 2.269 2.269 2.251 2.251 2.235 2.235 2.225 2.217 2.208 2.2 2.192 2.191 2.174 2.167 2.159 2.159 2.151 2.151 2.133 2.132 2.123 2.124 2.115 2.115 2.108 2.107 2.097 2.097 2.09 2.09 2.082 2.082 2.082 2.082 2.072 2.073 2.072 2.073 2.064 2.064 2.064 2.064 2.055 2.063 2.063 2.069 2.066 2.067 2.067 2.067 2.058 2.067 2.06 2.061 2.063 2.062 2.062 2.061 2.069 2.075 2.069 2.069 2.078 2.079 2.084 2.086 2.085 2.093 2.094 2.103 2.103 2.109 2.111 2.111 2.123 2.128 2.129 2.13 2.139 2.14 2.149 2.148 2.157 2.156 2.165 2.174 2.178 2.19 2.192 2.209 2.212 2.214 2.224 2.226 2.238 2.245 2.259 2.256 2.266 2.275 2.282 2.3 2.306 2.314 2.326 2.331 2.339 2.355 2.365 2.38 2.39 2.397 2.412 2.42 2.43 2.446 2.461 2.468 3.88 3.888 3.926 3.943 3.969 3.994 4.019 4.044 4.071 4.095 4.137 4.153 4.195 4.212 4.251 4.278 4.319 4.352 4.394 4.419 4.462 4.489 4.531 4.573 4.615 4.657 4.71 4.736 4.79 4.833 4.885 4.919 4.979 5.03 5.086 5.128 5.201 5.245 5.313 5.365 5.44 5.5 5.47 5.442 5.401 5.377 5.336 5.318 5.276 5.258 5.224 5.2 5.165 5.152 5.116 5.098 5.068 5.053 5.025 5.016 4.987 4.971 4.94 4.93 4.895 4.889 4.862 4.854 4.835 4.829 4.804 4.796 4.767 4.78 4.775 4.765 4.747 4.739 4.722 4.72 4.697 4.695 4.668 4.669 4.654 4.642 4.627 4.627 4.607 2.74 2.67 2.67 2.661 2.661 2.653 2.653 2.644 2.644 2.636 2.645 2.636 2.637 2.632 2.633 2.628 2.631 2.627 2.636 2.63 2.63 2.628 2.636 2.623 2.63 2.626 2.632 2.63 2.638 2.636 2.636 2.644 2.644 2.653 2.652 2.652 2.661 2.661 2.67 2.669 2.678 2.677 2.686 2.686 2.695 2.696 2.705 2.704 2.721 2.713 2.73 2.73 2.739 2.738 2.756 2.764 2.773 2.782 2.79 2.799 2.806 2.816 2.823 2.831 2.841 2.848 2.865 2.874 2.892 2.898 2.908 2.925 2.934 2.943 3.022 4.087 4.169 4.2 4.202 4.216 4.236 4.401 4.358 4.304 4.302 4.334 4.359 4.424 4.633 4.558 4.507 4.44 4.397 4.384 4.412 4.437 4.465 4.498 4.523	 0.977273 -1.199944 -0.918157 	 0.977273 -1.199944 -0.918157 	 0 0 laserazosSM3
FLASER 361 3.421 3.361 3.346 3.296 3.287 3.26 3.243 3.278 3.28 3.237 3.224 3.187 3.177 3.141 3.132 3.071 2.981 2.938 2.92 2.879 2.87 2.838 2.83 2.806 2.788 2.773 2.764 2.877 2.937 2.847 2.835 2.808 2.8 2.423 2.417 2.392 2.391 2.374 2.366 2.349 2.34 2.323 2.315 2.298 2.298 2.283 2.274 2.256 2.257 2.242 2.233 2.224 2.215 2.207 2.196 2.19 2.18 2.171 2.171 2.151 2.15 2.141 2.132 2.123 2.123 2.114 2.114 2.107 2.106 2.087 2.087 2.08 2.079 2.07 2.07 2.061 2.061 2.053 2.062 2.053 2.054 2.046 2.046 2.037 2.037 2.037 2.037 2.029 2.028 2.029 2.019 2.034 2.041 2.031 2.031 2.022 2.023 2.023 2.023 2.018 2.019 2.019 2.019 2.018 2.028 2.03 2.024 2.026 2.026 2.035 2.034 2.041 2.041 2.041 2.048 2.049 2.049 2.058 2.056 2.057 2.064 2.063 2.071 2.074 2.075 2.085 2.086 2.085 2.094 2.094 2.104 2.111 2.117 2.119 2.125 2.134 2.137 2.146 2.148 2.154 2.162 2.171 2.177 2.188 2.198 2.204 2.205 2.214 2.221 2.23 2.239 2.247 2.256 2.262 2.272 2.281 2.297 2.303 2.311 2.327 2.337 2.345 2.361 2.369 2.378 2.393 2.399 3.801 3.818 3.845 3.863 3.89 3.907 3.942 3.958 3.996 4.011 4.044 4.068 4.104 4.119 4.162 4.186 4.218 4.252 4.293 4.317 4.359 4.393 4.435 4.462 4.512 4.537 4.589 4.623 4.676 4.709 4.763 4.796 4.859 4.902 4.953 5.004 5.07 5.103 5.177 5.227 5.304 5.337 5.422 5.415 5.36 5.345 5.292 5.282 5.232 5.213 5.171 5.163 5.115 5.107 5.076 5.049 5.018 5.008 4.975 4.968 4.926 4.928 4.895 4.878 4.854 4.844 4.811 4.813 4.773 4.773 4.749 4.741 4.714 4.716 4.688 4.703 4.697 4.686 4.67 4.658 4.644 4.634 4.61 4.607 4.592 4.585 4.574 4.566 4.551 4.55 4.532 2.597 2.591 2.592 2.582 2.583 2.583 2.583 2.576 2.576 2.567 2.568 2.561 2.562 2.556 2.559 2.554 2.557 2.559 2.561 2.561 2.561 2.56 2.558 2.561 2.561 2.556 2.563 2.561 2.568 2.567 2.576 2.575 2.583 2.575 2.583 2.582 2.591 2.591 2.599 2.599 2.608 2.607 2.616 2.616 2.625 2.624 2.633 2.643 2.651 2.651 2.66 2.669 2.677 2.677 2.686 2.695 2.704 2.713 2.721 2.73 2.739 2.747 2.755 2.764 2.772 2.789 2.799 2.806 2.815 2.831 2.838 2.848 2.864 2.872 2.889 2.907 2.976 4.133 4.17 4.16 4.166 4.184 4.3 4.309 4.274 4.262 4.285 4.315 4.345 4.584 4.541 4.465 4.43 4.362 4.342 4.374 4.401 4.436 4.452 4.496 4.52 4.791 4.762	 1.028191 -1.262811 -0.862969 	 1.028191 -1.262811 -0.862969 	 0 0 laserazosSM3
FLASER 361 3.28 3.246 3.221 3.18 3.169 3.126 3.109 3.003 2.987 2.933 2.922 2.89 2.88 2.841 2.831 2.809 2.8 2.785 2.789 2.814 2.805 2.789 2.771 2.439 2.433 2.417 2.408 2.383 2.383 2.357 2.349 2.333 2.324 2.306 2.298 2.283 2.283 2.257 2.258 2.239 2.239 2.222 2.223 2.205 2.205 2.189 2.178 2.17 2.161 2.15 2.14 2.131 2.131 2.113 2.113 2.106 2.106 2.096 2.086 2.078 2.079 2.069 2.06 2.06 2.052 2.044 2.044 2.036 2.035 2.035 2.036 2.027 2.026 2.018 2.017 2.009 2.018 2.009 2.009 2.002 2.002 2.013 2.016 2.003 2.003 1.996 1.996 1.996 1.997 1.991 1.993 1.984 1.984 1.984 1.984 1.996 1.989 1.992 1.992 1.992 1.991 1.995 1.998 2.005 2.004 2.004 2.005 2.014 2.014 2.013 2.014 2.02 2.03 2.029 2.029 2.032 2.032 2.042 2.042 2.042 2.05 2.054 2.056 2.066 2.066 2.072 2.082 2.09 2.091 2.099 2.108 2.102 2.111 2.123 2.12 2.135 2.144 2.151 2.152 2.16 2.17 2.178 2.185 2.195 2.204 2.212 2.219 2.227 2.238 2.243 2.253 2.262 2.272 2.286 2.295 2.303 2.32 2.327 2.341 3.716 3.732 3.766 3.774 3.8 3.818 3.844 3.87 3.898 3.915 3.949 3.967 4.001 4.018 4.054 4.079 4.111 4.137 4.171 4.195 4.244 4.269 4.308 4.335 4.383 4.409 4.461 4.487 4.536 4.573 4.623 4.656 4.709 4.744 4.807 4.841 4.901 4.935 5.004 5.044 5.111 5.162 5.234 5.279 5.351 5.319 5.275 5.258 5.204 5.196 5.147 5.133 5.093 5.075 5.034 5.025 4.984 4.976 4.942 4.934 4.898 4.882 4.859 4.851 4.819 4.811 4.773 4.766 4.739 4.73 4.705 4.696 4.67 4.672 4.639 4.637 4.61 4.625 4.609 4.609 4.584 4.584 4.557 4.559 4.542 4.54 4.515 4.516 4.499 4.501 4.481 4.483 4.466 4.456 2.618 2.517 2.509 2.509 2.5 2.509 2.493 2.493 2.494 2.494 2.486 2.487 2.482 2.492 2.48 2.49 2.485 2.487 2.48 2.488 2.486 2.485 2.481 2.487 2.482 2.489 2.486 2.495 2.493 2.493 2.493 2.5 2.5 2.509 2.508 2.508 2.516 2.517 2.524 2.532 2.532 2.541 2.541 2.548 2.549 2.557 2.557 2.573 2.573 2.581 2.581 2.59 2.598 2.606 2.616 2.624 2.624 2.642 2.641 2.659 2.66 2.676 2.685 2.694 2.703 2.713 2.72 2.729 2.737 2.755 2.762 2.78 2.789 2.805 2.821 2.829 2.844 2.852 4.144 4.224 4.143 4.144 4.15 4.25 4.258 4.216 4.219 4.242 4.281 4.309 4.524 4.492 4.422 4.388 4.319 4.308 4.33 4.358 4.399 4.415 4.46 4.486 4.754 4.726 4.682 4.668 4.626 4.611	 1.082691 -1.322963 -0.808672 	 1.082691 -1.322963 -0.808672 	 0 0 laserazosSM3
FLASER 361 3.004 2.96 2.942 2.908 2.902 2.87 2.854 2.83 2.82 2.816 2.835 2.833 2.816 2.782 2.517 2.451 2.441 2.418 2.409 2.393 2.385 2.357 2.35 2.333 2.323 2.3 2.299 2.284 2.275 2.256 2.255 2.24 2.231 2.214 2.204 2.194 2.195 2.178 2.17 2.157 2.157 2.139 2.139 2.121 2.113 2.113 2.105 2.095 2.086 2.077 2.078 2.068 2.059 2.05 2.051 2.043 2.043 2.034 2.034 2.025 2.017 2.017 2.017 2.009 2.008 2.0 2.0 1.991 1.992 1.983 1.982 1.997 1.994 1.984 1.985 1.977 1.977 1.969 1.97 1.964 1.965 1.967 1.967 1.967 1.967 1.969 1.963 1.958 1.959 1.958 1.958 1.969 1.97 1.963 1.972 1.97 1.97 1.971 1.972 1.988 1.978 1.985 1.983 1.985 1.993 1.993 1.994 1.999 1.998 2.006 2.006 2.006 2.011 2.02 2.025 2.023 2.032 2.039 2.039 2.037 2.047 2.05 2.059 2.062 2.068 2.085 2.089 2.09 2.1 2.104 2.106 2.111 2.122 2.13 2.134 2.147 2.145 2.153 2.163 2.177 2.184 2.19 2.201 2.21 2.219 2.226 2.236 2.244 2.252 2.268 2.283 3.63 3.647 3.673 3.69 3.716 3.732 3.757 3.774 3.808 3.817 3.852 3.87 3.895 3.922 3.958 3.976 4.01 4.027 4.068 4.086 4.12 4.146 4.186 4.21 4.251 4.276 4.334 4.35 4.401 4.427 4.478 4.503 4.563 4.59 4.647 4.682 4.744 4.769 4.831 4.867 4.935 4.969 5.044 5.077 5.161 5.2 5.269 5.241 5.199 5.189 5.131 5.125 5.077 5.058 5.016 5.002 4.962 4.951 4.918 4.909 4.866 4.859 4.824 4.813 4.779 4.77 4.74 4.73 4.695 4.696 4.665 4.653 4.628 4.619 4.604 4.584 4.567 4.561 4.538 4.536 4.544 4.534 4.517 4.508 4.49 4.49 4.465 4.465 4.448 4.446 4.428 4.43 4.402 4.405 4.385 4.386 4.378 4.378 2.433 2.433 2.426 2.433 2.418 2.426 2.419 2.419 2.411 2.412 2.406 2.417 2.403 2.414 2.41 2.41 2.412 2.413 2.412 2.41 2.407 2.416 2.41 2.409 2.413 2.411 2.411 2.419 2.418 2.426 2.425 2.433 2.425 2.432 2.432 2.442 2.442 2.449 2.449 2.458 2.458 2.466 2.466 2.474 2.482 2.491 2.491 2.499 2.498 2.516 2.515 2.523 2.531 2.54 2.54 2.557 2.557 2.573 2.573 2.59 2.59 2.607 2.616 2.623 2.632 2.651 2.658 2.668 2.676 2.694 2.703 2.71 2.719 2.737 2.754 2.761 2.779 2.794 2.808 4.114 4.07 4.079 4.088 4.124 4.217 4.184 4.164 4.184 4.214 4.244 4.499 4.457 4.389 4.353 4.287 4.258 4.282 4.313 4.348 4.373 4.406 4.43 4.589 4.699 4.649 4.63 4.598 4.574 NaN NaN 6.246 6.219	 1.137931 -1.377216 -0.745474 	 1.137931 -1.377216 -0.745474 	 0 0 laserazosSM3
FLASER 361 2.84 2.879 2.867 2.833 2.824 2.488 2.479 2.446 2.446 2.421 2.406 2.387 2.378 2.362 2.35 2.328 2.319 2.303 2.303 2.275 2.276 2.259 2.249 2.232 2.223 2.205 2.206 2.188 2.188 2.167 2.158 2.15 2.14 2.131 2.122 2.113 2.113 2.105 2.095 2.086 2.078 2.068 2.068 2.06 2.051 2.043 2.043 2.034 2.034 2.016 2.016 2.008 2.017 2.008 2.007 1.991 1.991 1.984 1.984 1.974 1.981 1.982 1.983 1.976 1.976 1.969 1.968 1.96 1.96 1.95 1.949 1.95 1.949 1.952 1.946 1.946 1.947 1.943 1.942 1.943 1.95 1.95 1.95 1.947 1.954 1.947 1.954 1.954 1.954 1.958 1.954 1.96 1.961 1.96 1.959 1.97 1.961 1.965 1.964 1.973 1.973 1.985 1.987 1.994 1.988 1.998 1.998 2.005 2.004 2.01 2.017 2.017 2.027 2.028 2.035 2.042 2.045 2.046 2.055 2.06 2.063 2.066 2.075 2.077 2.089 2.098 2.102 2.11 2.117 2.123 2.133 2.138 2.148 2.157 2.158 2.174 2.183 2.192 2.201 2.217 2.216 2.392 3.561 3.587 3.596 3.622 3.638 3.655 3.673 3.706 3.715 3.749 3.766 3.791 3.808 3.845 3.86 3.887 3.903 3.939 3.966 4.0 4.018 4.062 4.077 4.12 4.136 4.178 4.202 4.244 4.269 4.319 4.344 4.394 4.418 4.47 4.496 4.556 4.58 4.641 4.667 4.735 4.763 4.834 4.859 4.936 4.969 5.045 5.078 5.161 5.194 5.158 5.141 5.091 5.084 5.027 5.018 4.976 4.96 4.917 4.909 4.867 4.858 4.825 4.818 4.773 4.766 4.729 4.729 4.692 4.692 4.654 4.643 4.617 4.609 4.576 4.576 4.543 4.536 4.52 4.514 4.485 4.483 4.462 4.461 4.456 4.457 4.441 4.431 4.415 4.404 4.386 4.388 4.362 4.363 4.347 4.346 4.329 4.329 4.313 4.311 4.296 2.372 2.358 2.358 2.351 2.358 2.351 2.351 2.343 2.343 2.338 2.338 2.334 2.335 2.331 2.341 2.336 2.337 2.331 2.339 2.329 2.337 2.332 2.337 2.334 2.34 2.338 2.344 2.343 2.351 2.342 2.351 2.35 2.358 2.358 2.358 2.358 2.366 2.366 2.383 2.383 2.383 2.391 2.4 2.399 2.407 2.408 2.407 2.417 2.425 2.424 2.441 2.441 2.449 2.449 2.466 2.474 2.474 2.491 2.49 2.498 2.516 2.515 2.531 2.54 2.548 2.557 2.572 2.581 2.589 2.597 2.616 2.623 2.632 2.649 2.657 2.676 2.685 2.701 2.71 2.727 2.736 2.799 4.114 4.052 4.054 4.144 4.185 4.125 4.117 4.134 4.157 4.194 4.447 4.396 4.361 4.295 4.264 4.202 4.225 4.256 4.288 4.321 4.344 4.388 4.411 4.645 4.631 4.584 4.571 4.536 NaN 6.246 6.221 6.152 6.145 6.046 6.042 6.025 6.02	 1.190837 -1.422979 -0.683165 	 1.190837 -1.422979 -0.683165 	 0 0 laserazosSM3
FLASER 361 2.442 2.422 2.414 2.388 2.389 2.364 2.346 2.338 2.329 2.304 2.304 2.278 2.278 2.251 2.251 2.234 2.224 2.206 2.206 2.185 2.176 2.166 2.158 2.14 2.14 2.131 2.122 2.113 2.113 2.095 2.086 2.078 2.078 2.069 2.06 2.051 2.051 2.043 2.043 2.025 2.025 2.016 2.016 2.006 2.007 1.999 1.99 1.99 1.981 1.989 1.989 1.982 1.973 1.973 1.966 1.967 1.958 1.961 1.954 1.947 1.948 1.948 1.939 1.944 1.944 1.938 1.938 1.939 1.932 1.944 1.936 1.931 1.93 1.938 1.938 1.937 1.936 1.948 1.942 1.943 1.943 1.942 1.942 1.942 1.95 1.947 1.948 1.948 1.948 1.956 1.955 1.963 1.959 1.964 1.964 1.972 1.963 1.982 1.985 1.986 1.994 2.0 2.001 2.002 2.011 2.012 2.012 2.029 2.029 2.031 2.03 2.041 2.048 2.045 2.054 2.058 2.066 2.077 2.074 2.089 2.098 2.103 2.104 2.114 2.126 2.13 2.139 2.148 2.156 2.174 2.173 2.314 3.489 3.517 3.525 3.552 3.56 3.586 3.596 3.622 3.638 3.664 3.672 3.706 3.715 3.749 3.765 3.799 3.817 3.843 3.87 3.896 3.912 3.947 3.965 4.009 4.027 4.067 4.087 4.126 4.145 4.194 4.21 4.268 4.285 4.333 4.357 4.409 4.436 4.488 4.514 4.573 4.598 4.657 4.684 4.753 4.78 4.851 4.875 4.953 4.987 5.07 5.095 5.101 5.09 5.041 5.023 4.975 4.968 4.916 4.908 4.867 4.858 4.817 4.807 4.764 4.757 4.722 4.71 4.678 4.671 4.634 4.624 4.595 4.585 4.55 4.541 4.519 4.518 4.475 4.478 4.449 4.454 4.425 4.417 4.393 4.394 4.397 4.396 4.37 4.371 4.347 4.346 4.32 4.319 4.296 4.305 4.28 4.279 4.255 4.263 4.238 4.239 4.221 4.222 2.366 2.291 2.274 2.283 2.274 2.274 2.266 2.275 2.258 2.267 2.261 2.263 2.267 2.269 2.255 2.265 2.26 2.269 2.262 2.26 2.259 2.266 2.262 2.267 2.264 2.261 2.258 2.266 2.266 2.274 2.265 2.274 2.273 2.282 2.281 2.29 2.29 2.298 2.298 2.306 2.306 2.306 2.314 2.314 2.323 2.332 2.332 2.34 2.34 2.348 2.356 2.365 2.365 2.373 2.382 2.39 2.399 2.407 2.415 2.415 2.424 2.431 2.441 2.449 2.457 2.473 2.481 2.49 2.497 2.514 2.522 2.538 2.547 2.564 2.572 2.579 2.588 2.605 2.62 2.629 2.645 2.664 2.672 2.688 4.06 4.028 4.03 4.109 4.093 4.065 4.066 4.082 4.122 4.144 4.369 4.345 4.27 4.246 4.179 4.16 4.188 4.205 4.246 4.271 4.31 4.344 4.61 4.596 4.563 4.535 4.505 4.489 NaN 6.188 6.131 6.112 6.051 6.01 5.984 5.985 5.97 5.972 5.954 5.956 5.941 5.94	 1.247254 -1.465673 -0.613736 	 1.247254 -1.465673 -0.613736 	 0 0 laserazosSM3
FLASER 361 2.33 2.312 2.304 2.287 2.279 2.261 2.26 2.237 2.23 2.212 2.203 2.195 2.185 2.176 2.167 2.15 2.14 2.13 2.121 2.113 2.113 2.105 2.095 2.078 2.078 2.068 2.068 2.059 2.05 2.042 2.042 2.033 2.033 2.015 2.015 2.007 2.007 2.004 2.001 2.003 1.994 1.994 1.987 1.989 1.98 1.973 1.975 1.962 1.963 1.954 1.954 1.951 1.951 1.946 1.946 1.945 1.946 1.938 1.941 1.946 1.937 1.937 1.937 1.938 1.937 1.945 1.943 1.942 1.942 1.934 1.943 1.943 1.942 1.936 1.937 1.939 1.939 1.939 1.938 1.945 1.949 1.947 1.947 1.955 1.955 1.955 1.96 1.969 1.969 1.975 1.975 1.986 1.985 2.0 2.0 2.003 2.003 2.01 2.009 2.01 2.012 2.021 2.023 2.037 2.033 2.04 2.039 2.057 2.062 2.068 2.076 2.086 2.087 2.095 2.097 2.104 2.113 2.121 2.122 2.139 2.146 3.439 3.448 3.465 3.473 3.499 3.508 3.534 3.542 3.568 3.577 3.613 3.613 3.646 3.654 3.689 3.697 3.731 3.739 3.782 3.788 3.826 3.833 3.877 3.887 3.931 3.938 3.984 4.0 4.032 4.06 4.103 4.111 4.161 4.178 4.226 4.251 4.301 4.317 4.383 4.401 4.452 4.479 4.536 4.554 4.621 4.647 4.706 4.735 4.815 4.832 4.91 4.935 5.021 5.044 5.034 5.031 4.974 4.956 4.907 4.897 4.846 4.837 4.795 4.788 4.741 4.737 4.69 4.69 4.656 4.639 4.614 4.597 4.563 4.555 4.526 4.517 4.483 4.483 4.44 4.441 4.406 4.407 4.385 4.381 4.358 4.35 4.326 4.325 4.319 4.32 4.296 4.296 4.271 4.27 4.255 4.245 4.23 4.228 4.204 4.213 4.189 4.189 4.172 4.172 4.154 4.155 2.213 2.237 2.203 2.212 2.204 2.203 2.196 2.196 2.187 2.197 2.189 2.189 2.185 2.186 2.18 2.192 2.187 2.188 2.188 2.188 2.187 2.186 2.183 2.191 2.186 2.193 2.189 2.188 2.186 2.196 2.195 2.203 2.202 2.202 2.202 2.211 2.211 2.22 2.219 2.219 2.219 2.228 2.228 2.237 2.246 2.246 2.254 2.262 2.263 2.263 2.271 2.28 2.288 2.288 2.297 2.306 2.306 2.313 2.321 2.331 2.339 2.347 2.356 2.364 2.372 2.381 2.389 2.398 2.405 2.422 2.431 2.439 2.447 2.464 2.471 2.489 2.496 2.504 2.521 2.537 2.544 2.561 2.576 2.595 2.6 2.618 2.806 3.975 3.96 4.013 4.032 4.008 3.997 4.02 4.06 4.085 4.31 4.287 4.213 4.196 4.13 4.106 4.121 4.145 4.178 4.204 4.254 4.269 4.362 4.55 4.501 4.495 4.452 4.444 6.172 6.137 6.058 6.062 5.995 5.956 5.935 5.933 5.919 5.919 5.903 5.906 5.891 5.9 5.893 5.89 6.933 6.983 7.111 7.163	 1.304916 -1.502853 -0.533626 	 1.304916 -1.502853 -0.533626 	 0 0 laserazosSM3
FLASER 361 2.231 2.222 2.213 2.196 2.196 2.177 2.168 2.159 2.159 2.141 2.132 2.123 2.114 2.106 2.106 2.096 2.086 2.079 2.079 2.059 2.059 2.05 2.043 2.034 2.034 2.038 2.035 2.023 2.022 2.013 2.014 2.006 2.006 2.001 1.995 1.988 1.979 1.979 1.971 1.982 1.976 1.97 1.97 1.961 1.962 1.959 1.961 1.962 1.953 1.953 1.953 1.952 1.952 1.954 1.957 1.957 1.948 1.949 1.949 1.951 1.944 1.941 1.942 1.948 1.949 1.948 1.946 1.953 1.953 1.947 1.955 1.955 1.955 1.969 1.962 1.969 1.969 1.976 1.976 1.978 1.977 1.987 1.987 1.995 1.995 2.003 2.008 2.003 2.007 2.017 2.013 2.02 2.027 2.03 2.029 2.044 2.045 2.059 2.058 2.066 2.067 2.079 2.078 2.097 2.097 2.103 2.111 2.118 2.119 3.391 3.399 3.423 3.431 3.456 3.456 3.482 3.49 3.517 3.524 3.551 3.56 3.587 3.595 3.63 3.629 3.663 3.672 3.705 3.714 3.748 3.764 3.797 3.807 3.851 3.859 3.895 3.903 3.947 3.964 4.007 4.017 4.059 4.077 4.117 4.135 4.184 4.192 4.25 4.266 4.333 4.349 4.4 4.418 4.478 4.495 4.562 4.579 4.656 4.673 4.743 4.761 4.839 4.865 4.944 4.968 5.001 4.989 4.922 4.922 4.862 4.856 4.806 4.797 4.753 4.747 4.692 4.692 4.639 4.651 4.6 4.598 4.557 4.547 4.524 4.506 4.471 4.474 4.429 4.429 4.396 4.39 4.364 4.354 4.329 4.323 4.299 4.301 4.265 4.268 4.239 4.25 4.238 4.239 4.213 4.213 4.189 4.189 4.172 4.172 4.146 4.146 4.129 4.129 4.104 4.103 4.085 4.086 4.076 2.145 2.131 2.14 2.131 2.131 2.123 2.122 2.115 2.123 2.115 2.117 2.11 2.119 2.115 2.117 2.111 2.112 2.107 2.116 2.109 2.118 2.107 2.114 2.111 2.109 2.115 2.111 2.117 2.116 2.114 2.114 2.113 2.122 2.122 2.131 2.13 2.139 2.13 2.139 2.138 2.149 2.148 2.156 2.157 2.156 2.156 2.174 2.174 2.183 2.183 2.193 2.193 2.201 2.209 2.209 2.218 2.227 2.227 2.236 2.245 2.253 2.261 2.271 2.279 2.287 2.287 2.305 2.305 2.321 2.33 2.338 2.347 2.355 2.371 2.38 2.387 2.397 2.413 2.421 2.439 2.445 2.462 2.478 2.485 2.502 2.517 2.526 2.551 2.563 3.925 3.952 3.998 3.98 3.933 3.929 3.957 3.981 4.097 4.26 4.197 4.163 4.105 4.08 4.035 4.052 4.093 4.111 4.152 4.178 4.219 4.248 4.466 4.458 4.416 4.408 4.376 4.387 6.036 6.02 5.983 5.956 5.893 5.883 5.866 5.868 5.85 5.853 5.85 5.843 5.838 5.841 5.894 6.873 6.998 7.047 7.174 7.227 7.375 7.425 7.574 7.632 7.015 7.186	 1.360803 -1.532795 -0.45129 	 1.360803 -1.532795 -0.45129 	 0 0 laserazosSM3
FLASER 361 2.16 2.152 2.143 2.143 2.124 2.116 2.116 2.106 2.106 2.088 2.087 2.079 2.069 2.078 2.075 2.068 2.057 2.05 2.039 2.041 2.04 2.032 2.023 2.022 2.014 2.018 2.013 2.006 2.005 2.003 2.003 1.997 1.994 1.995 1.987 1.986 1.986 1.987 1.987 1.983 1.982 1.98 1.972 1.983 1.972 1.982 1.975 1.971 1.971 1.964 1.964 1.973 1.964 1.969 1.968 1.963 1.964 1.973 1.964 1.977 1.969 1.978 1.978 1.986 1.986 1.993 1.994 1.995 1.995 2.003 1.996 2.004 2.003 2.01 2.005 2.017 2.016 2.025 2.015 2.029 2.03 2.045 2.038 2.058 2.055 2.063 2.063 2.07 2.071 2.081 2.08 2.098 2.098 2.106 2.106 3.357 3.358 3.382 3.382 3.406 3.406 3.439 3.439 3.465 3.466 3.499 3.499 3.525 3.525 3.561 3.569 3.595 3.604 3.63 3.638 3.672 3.68 3.714 3.722 3.764 3.765 3.799 3.808 3.849 3.858 3.903 3.914 3.957 3.964 4.006 4.015 4.067 4.077 4.127 4.136 4.185 4.191 4.25 4.257 4.333 4.333 4.401 4.407 4.477 4.487 4.562 4.57 4.645 4.665 4.734 4.751 4.831 4.849 4.935 4.952 4.926 4.919 4.853 4.854 4.794 4.792 4.74 4.73 4.679 4.671 4.63 4.628 4.58 4.57 4.529 4.531 4.486 4.488 4.445 4.447 4.407 4.396 4.365 4.362 4.32 4.321 4.288 4.279 4.255 4.254 4.223 4.224 4.193 4.193 4.188 4.189 4.172 4.172 4.137 4.146 4.121 4.121 4.095 4.096 4.078 4.078 4.052 4.061 4.035 4.035 4.017 4.017 2.06 2.068 2.06 2.069 2.051 2.06 2.051 2.051 2.044 2.051 2.044 2.045 2.038 2.038 2.034 2.043 2.03 2.04 2.036 2.036 2.039 2.039 2.039 2.038 2.035 2.042 2.036 2.035 2.04 2.039 2.035 2.044 2.043 2.043 2.042 2.05 2.05 2.05 2.058 2.058 2.058 2.067 2.067 2.067 2.067 2.077 2.077 2.085 2.094 2.094 2.103 2.111 2.112 2.12 2.12 2.129 2.129 2.138 2.148 2.156 2.155 2.164 2.173 2.182 2.192 2.2 2.209 2.209 2.218 2.226 2.235 2.244 2.252 2.261 2.27 2.286 2.295 2.304 2.311 2.329 2.337 2.346 2.362 2.379 2.386 2.394 2.418 2.427 2.441 2.452 2.467 2.483 3.953 3.945 3.9 3.893 3.857 3.863 3.903 3.911 4.184 4.178 4.104 4.087 4.017 4.009 3.973 3.981 4.025 4.041 4.092 4.11 4.159 4.173 4.397 4.392 4.347 4.34 4.307 4.303 5.943 5.923 5.906 5.874 5.816 5.818 5.799 5.8 5.783 5.786 5.773 5.78 5.774 5.784 6.78 6.831 6.969 7.001 7.147 7.192 7.333 7.387 7.543 7.596 6.998 7.015 NaN NaN 5.039 5.032 4.99 4.981 4.94 4.94	 1.421208 -1.558197 -0.348481 	 1.421208 -1.558197 -0.348481 	 0 0 laserazosSM3
FLASER 361 2.134 2.117 2.117 2.108 2.1 2.101 2.089 2.086 2.078 2.068 2.068 2.063 2.061 2.05 2.05 2.05 2.042 2.047 2.044 2.04 2.03 2.031 2.031 2.03 2.021 2.03 2.021 2.024 2.015 2.015 2.007 2.018 2.009 2.007 2.006 2.008 1.999 2.004 2.011 2.005 2.005 2.013 2.004 2.006 2.006 2.016 2.007 2.012 2.011 2.021 2.021 2.024 2.024 2.022 2.021 2.03 2.02 2.03 2.029 2.031 2.03 2.044 2.044 2.049 2.039 2.053 2.053 2.071 2.062 2.089 2.088 2.096 2.088 2.089 2.088 2.1 2.1 2.106 2.108 2.18 2.194 3.358 3.358 3.383 3.375 3.4 3.399 3.424 3.432 3.457 3.457 3.483 3.483 3.509 3.518 3.543 3.552 3.578 3.577 3.614 3.622 3.646 3.655 3.689 3.689 3.73 3.732 3.774 3.783 3.826 3.826 3.869 3.871 3.914 3.913 3.966 3.974 4.018 4.027 4.067 4.077 4.128 4.135 4.194 4.202 4.259 4.266 4.335 4.333 4.41 4.409 4.479 4.486 4.562 4.571 4.647 4.656 4.734 4.744 4.832 4.84 4.928 4.93 4.876 4.863 4.809 4.804 4.742 4.739 4.68 4.671 4.63 4.621 4.569 4.563 4.518 4.519 4.471 4.473 4.425 4.427 4.383 4.385 4.334 4.336 4.305 4.295 4.261 4.262 4.224 4.225 4.193 4.192 4.167 4.162 4.138 4.138 4.129 4.13 4.104 4.104 4.077 4.078 4.051 4.043 4.035 4.026 4.008 4.008 3.992 3.991 3.974 3.973 2.003 2.007 1.991 1.999 1.981 1.991 1.981 1.982 1.974 1.982 1.967 1.976 1.967 1.976 1.959 1.969 1.964 1.964 1.959 1.96 1.957 1.966 1.961 1.962 1.954 1.962 1.954 1.96 1.956 1.964 1.959 1.958 1.962 1.961 1.967 1.967 1.965 1.974 1.973 1.973 1.973 1.98 1.98 1.989 1.989 1.989 1.998 1.997 2.006 2.005 2.014 2.014 2.014 2.023 2.023 2.032 2.041 2.041 2.049 2.048 2.058 2.066 2.067 2.076 2.084 2.084 2.093 2.103 2.111 2.119 2.129 2.138 2.137 2.147 2.155 2.164 2.181 2.192 2.199 2.208 2.218 2.226 2.235 2.243 2.261 2.269 2.287 2.295 2.31 2.319 2.335 2.344 2.361 2.375 2.393 2.397 3.89 3.882 3.803 3.803 3.769 3.781 3.821 3.838 4.103 4.093 4.016 4.008 3.938 3.93 3.883 3.9 3.943 3.961 4.006 4.023 4.074 4.088 4.32 4.32 4.273 4.272 4.226 4.302 5.862 5.862 5.833 5.795 5.738 5.748 5.724 5.731 5.71 5.711 5.711 5.714 5.711 5.71 5.757 6.756 6.887 6.926 7.067 7.115 7.264 7.317 7.474 7.517 6.939 6.941 7.956 NaN 4.98 4.978 4.936 4.928 4.893 4.886 4.853 4.852 4.808 4.8 4.765 4.766 4.729 4.73 4.697 4.696	 1.478247 -1.575676 -0.248343 	 1.478247 -1.575676 -0.248343 	 0 0 laserazosSM3
FLASER 361 2.115 2.108 2.108 2.108 2.094 2.105 2.095 2.094 2.085 2.085 2.084 2.079 2.077 2.071 2.071 2.08 2.072 2.063 2.064 2.061 2.051 2.052 2.052 2.056 2.056 2.051 2.051 2.059 2.05 2.055 2.056 2.058 2.049 2.057 2.056 2.058 2.059 2.066 2.057 2.065 2.056 2.065 2.065 2.075 2.064 2.075 2.075 2.079 2.08 2.082 2.082 2.091 2.091 2.141 2.138 2.137 2.135 2.109 2.108 2.126 2.117 2.135 2.134 2.141 2.142 3.35 3.358 3.383 3.374 3.399 3.4 3.424 3.424 3.44 3.449 3.474 3.474 3.5 3.5 3.526 3.517 3.561 3.552 3.587 3.587 3.614 3.623 3.647 3.648 3.69 3.691 3.725 3.724 3.767 3.767 3.81 3.809 3.852 3.851 3.897 3.895 3.948 3.949 4.001 4.002 4.053 4.052 4.103 4.103 4.162 4.17 4.22 4.227 4.294 4.293 4.358 4.368 4.436 4.436 4.514 4.512 4.58 4.589 4.665 4.673 4.761 4.76 4.85 4.858 4.893 4.882 4.819 4.809 4.748 4.737 4.676 4.678 4.628 4.615 4.566 4.56 4.509 4.509 4.463 4.463 4.419 4.41 4.374 4.369 4.326 4.327 4.277 4.278 4.236 4.237 4.196 4.201 4.168 4.165 4.134 4.134 4.1 4.102 4.071 4.071 4.07 4.07 4.035 4.043 4.017 4.017 3.992 3.992 3.965 3.973 3.938 3.947 3.92 3.92 1.938 1.938 1.931 1.931 1.922 1.922 1.922 1.922 1.913 1.914 1.906 1.906 1.907 1.906 1.897 1.898 1.891 1.9 1.886 1.902 1.881 1.89 1.885 1.887 1.884 1.893 1.887 1.896 1.887 1.894 1.892 1.891 1.885 1.893 1.889 1.888 1.885 1.892 1.89 1.898 1.896 1.896 1.895 1.905 1.904 1.913 1.912 1.912 1.912 1.921 1.921 1.93 1.929 1.93 1.937 1.946 1.946 1.954 1.953 1.962 1.971 1.971 1.98 1.988 1.988 1.997 2.005 2.005 2.014 2.023 2.031 2.041 2.04 2.048 2.057 2.066 2.076 2.076 2.093 2.103 2.11 2.111 2.128 2.137 2.147 2.155 2.173 2.181 2.199 2.199 2.217 2.226 2.243 2.251 2.268 2.267 2.293 2.302 2.319 3.845 3.767 3.759 3.687 3.69 3.695 3.711 3.765 3.782 3.982 3.982 3.903 3.903 3.825 3.815 3.811 3.83 3.872 3.889 3.935 3.96 4.011 4.041 4.213 4.219 4.174 4.17 4.209 4.151 5.766 5.777 5.703 5.682 5.649 5.651 5.644 5.643 5.634 5.637 5.632 5.635 5.62 5.627 6.67 6.703 6.843 6.879 7.026 7.069 7.23 7.271 7.446 7.49 6.816 6.898 7.93 7.973 4.91 4.901 4.858 4.859 4.816 4.816 4.78 4.771 4.735 4.736 4.7 4.692 4.666 4.668 4.634 4.624 4.599 4.599 4.575 4.568 4.54 4.543 4.516 4.517 4.501 4.502	 1.536427 -1.586894 -0.136188 	 1.536427 -1.586894 -0.136188 	 0 0 laserazosSM3
FLASER 361 2.135 2.135 2.127 2.123 2.123 2.116 2.116 2.12 2.11 2.116 2.109 2.115 2.107 2.113 2.112 2.113 2.105 2.112 2.104 2.11 2.11 2.118 2.109 2.111 2.111 2.11 2.111 2.11 2.11 2.118 2.118 2.126 2.117 2.127 2.127 2.136 2.136 2.223 2.242 2.243 2.25 2.153 2.154 2.162 2.161 2.17 2.17 2.186 2.176 3.373 3.374 3.399 3.391 3.415 3.415 3.432 3.431 3.456 3.456 3.482 3.482 3.499 3.508 3.525 3.525 3.561 3.551 3.586 3.578 3.613 3.613 3.647 3.647 3.681 3.68 3.715 3.715 3.758 3.748 3.791 3.791 3.833 3.836 3.88 3.872 3.916 3.914 3.961 3.969 4.011 4.011 4.062 4.063 4.114 4.113 4.17 4.17 4.227 4.228 4.294 4.293 4.36 4.367 4.435 4.436 4.505 4.505 4.572 4.581 4.657 4.666 4.743 4.752 4.834 4.841 4.884 4.875 4.806 4.8 4.737 4.727 4.667 4.668 4.606 4.609 4.54 4.54 4.491 4.489 4.44 4.439 4.387 4.383 4.341 4.338 4.29 4.298 4.245 4.253 4.205 4.202 4.162 4.161 4.131 4.132 4.098 4.098 4.065 4.066 4.036 4.038 4.034 4.034 4.0 3.999 3.973 3.982 3.945 3.954 3.928 3.919 3.896 3.899 1.887 1.895 1.878 1.887 1.87 1.879 1.862 1.87 1.862 1.862 1.854 1.854 1.845 1.854 1.846 1.847 1.837 1.846 1.83 1.838 1.831 1.839 1.825 1.835 1.829 1.828 1.824 1.825 1.831 1.831 1.825 1.826 1.825 1.825 1.831 1.831 1.826 1.834 1.831 1.83 1.826 1.834 1.831 1.83 1.83 1.837 1.836 1.836 1.844 1.845 1.844 1.844 1.853 1.853 1.861 1.86 1.861 1.868 1.878 1.878 1.877 1.886 1.886 1.894 1.903 1.903 1.911 1.911 1.92 1.928 1.928 1.936 1.945 1.953 1.962 1.961 1.971 1.978 1.987 1.996 2.004 2.013 2.022 2.031 2.039 2.04 2.056 2.066 2.075 2.083 2.092 2.102 2.11 2.127 2.136 2.147 2.163 2.163 2.19 2.198 2.215 2.225 3.756 3.758 3.672 3.664 3.598 3.599 3.626 3.626 3.67 3.687 3.901 3.894 3.824 3.814 3.746 3.737 3.725 3.734 3.783 3.791 3.845 3.852 3.907 3.924 4.138 4.137 4.097 4.096 4.06 4.096 5.693 5.694 5.649 5.639 5.569 5.577 5.562 5.561 5.545 5.547 5.552 5.554 5.538 5.549 5.541 5.577 6.708 6.742 6.892 6.923 7.083 7.12 7.297 7.323 7.516 7.551 7.759 7.801 6.517 4.902 4.805 4.805 4.761 4.76 4.717 4.717 4.683 4.674 4.647 4.64 4.606 4.605 4.572 4.572 4.539 4.537 4.513 4.514 4.488 4.487 4.462 4.463 4.445 4.436 4.421 4.419 4.392 4.401 4.387 4.387 4.362 4.372 4.355 4.354 4.338 4.338	 1.594834 -1.591439 -0.023588 	 1.594834 -1.591439 -0.023588 	 0 0 laserazosSM3
FLASER 361 2.174 2.177 2.176 2.176 2.168 2.192 2.184 2.176 2.175 2.176 2.175 2.175 2.175 2.183 2.174 2.183 2.183 2.193 2.182 2.192 2.192 2.2 2.194 2.21 2.211 2.208 2.208 2.216 2.207 2.216 2.216 2.23 2.23 3.424 3.415 3.432 3.432 3.457 3.449 3.473 3.465 3.49 3.49 3.516 3.507 3.533 3.524 3.56 3.56 3.577 3.577 3.613 3.604 3.63 3.63 3.663 3.655 3.698 3.689 3.731 3.722 3.766 3.765 3.8 3.799 3.835 3.835 3.88 3.878 3.913 3.914 3.967 3.958 4.009 4.001 4.051 4.052 4.103 4.103 4.162 4.153 4.212 4.212 4.269 4.271 4.337 4.336 4.395 4.395 4.463 4.462 4.532 4.532 4.606 4.606 4.684 4.692 4.771 4.771 4.859 4.859 4.86 4.848 4.779 4.781 4.711 4.71 4.642 4.64 4.575 4.571 4.513 4.513 4.456 4.458 4.406 4.406 4.353 4.353 4.303 4.305 4.257 4.256 4.208 4.209 4.167 4.161 4.127 4.128 4.088 4.095 4.061 4.053 4.023 4.025 4.016 4.016 3.99 3.99 3.963 3.953 3.937 3.927 3.9 3.9 1.86 1.86 1.852 1.853 1.835 1.835 1.826 1.827 1.818 1.827 1.809 1.809 1.8 1.809 1.793 1.801 1.793 1.793 1.784 1.793 1.784 1.785 1.777 1.786 1.777 1.777 1.772 1.771 1.766 1.775 1.769 1.769 1.766 1.766 1.761 1.771 1.765 1.773 1.765 1.773 1.77 1.77 1.763 1.772 1.767 1.776 1.765 1.771 1.77 1.777 1.776 1.776 1.776 1.784 1.784 1.785 1.793 1.793 1.793 1.8 1.801 1.809 1.809 1.809 1.818 1.818 1.818 1.827 1.834 1.834 1.843 1.843 1.852 1.852 1.86 1.868 1.868 1.877 1.886 1.886 1.894 1.902 1.91 1.91 1.919 1.928 1.936 1.945 1.962 1.961 1.97 1.978 1.996 1.996 2.013 2.022 2.03 2.039 2.056 2.055 2.075 2.082 2.101 2.101 2.118 2.127 2.13 3.704 3.621 3.614 3.546 3.538 3.506 3.518 3.547 3.565 3.668 3.784 3.777 3.777 3.703 3.694 3.624 3.626 3.647 3.657 3.709 3.724 3.775 3.782 3.837 3.864 4.038 4.037 3.996 3.995 4.005 3.97 5.592 5.594 5.534 5.525 5.482 5.483 5.465 5.474 5.452 5.457 5.449 5.452 5.448 5.448 5.452 5.481 6.63 6.646 6.807 6.833 6.995 7.031 7.2 7.233 7.428 7.461 6.488 7.708 6.418 4.774 4.724 4.724 4.682 4.68 4.639 4.637 4.593 4.595 4.561 4.563 4.529 4.529 4.495 4.495 4.469 4.469 4.443 4.443 4.408 4.416 4.392 4.392 4.366 4.366 4.341 4.342 4.325 4.326 4.309 4.308 4.294 4.293 4.277 4.285 4.26 4.272 4.254 4.262 4.249 4.247 4.241 4.242 4.23 4.239 4.223 4.233 4.218 4.226	 1.657108 -1.589085 0.092572 	 1.657108 -1.589085 0.092572 	 0 0 laserazosSM3
FLASER 361 2.249 2.256 2.248 2.255 2.247 2.264 2.255 2.264 2.254 2.272 2.263 2.281 2.271 2.28 2.28 2.294 2.294 3.475 3.467 3.484 3.475 3.501 3.492 3.518 3.51 3.535 3.526 3.553 3.553 3.569 3.569 3.596 3.596 3.623 3.614 3.647 3.638 3.664 3.664 3.697 3.689 3.723 3.722 3.757 3.757 3.789 3.79 3.826 3.825 3.862 3.86 3.896 3.888 3.93 3.932 3.977 3.976 4.018 4.018 4.063 4.062 4.114 4.103 4.161 4.153 4.21 4.211 4.259 4.261 4.327 4.318 4.384 4.384 4.445 4.445 4.514 4.514 4.581 4.581 4.657 4.659 4.737 4.737 4.817 4.816 4.904 4.902 4.839 4.839 4.76 4.753 4.685 4.674 4.613 4.614 4.553 4.546 4.489 4.488 4.43 4.431 4.377 4.378 4.327 4.317 4.279 4.272 4.223 4.214 4.175 4.175 4.129 4.134 4.094 4.097 4.063 4.062 4.03 4.02 3.994 3.994 3.981 3.981 3.952 3.953 3.917 3.918 1.833 1.833 1.826 1.816 1.808 1.817 1.799 1.799 1.791 1.791 1.782 1.783 1.774 1.774 1.757 1.766 1.757 1.757 1.748 1.748 1.739 1.748 1.731 1.74 1.723 1.74 1.723 1.733 1.724 1.725 1.725 1.725 1.718 1.718 1.714 1.715 1.71 1.711 1.716 1.716 1.712 1.721 1.715 1.714 1.713 1.721 1.718 1.718 1.712 1.711 1.715 1.722 1.72 1.719 1.717 1.726 1.725 1.724 1.723 1.724 1.733 1.733 1.733 1.741 1.74 1.74 1.749 1.749 1.757 1.758 1.767 1.766 1.774 1.774 1.783 1.783 1.792 1.792 1.8 1.799 1.808 1.818 1.817 1.826 1.834 1.834 1.843 1.843 1.86 1.86 1.867 1.876 1.885 1.885 1.902 1.91 1.919 1.919 1.936 1.945 1.952 1.961 1.97 1.978 1.995 2.003 2.012 2.03 2.039 2.047 3.63 3.629 3.554 3.554 3.468 3.477 3.412 3.422 3.453 3.453 3.508 3.516 3.709 3.71 3.634 3.634 3.565 3.556 3.537 3.546 3.588 3.598 3.645 3.655 3.706 3.722 3.976 3.976 3.934 3.945 3.892 3.893 5.548 5.547 5.495 5.499 5.399 5.397 5.38 5.38 5.366 5.376 5.366 5.369 5.355 5.366 5.351 5.36 5.521 6.42 6.568 6.595 6.747 6.773 6.943 6.969 7.149 7.183 7.372 7.41 6.395 7.649 6.313 4.775 4.627 4.627 4.584 4.586 4.544 4.542 4.51 4.508 4.475 4.476 4.44 4.443 4.415 4.415 4.38 4.381 4.354 4.355 4.332 4.33 4.299 4.306 4.283 4.282 4.259 4.259 4.242 4.243 4.226 4.226 4.209 4.211 4.202 4.202 4.186 4.187 4.179 4.18 4.171 4.173 4.159 4.166 4.153 4.162 4.148 4.156 4.142 4.142 4.135 4.145 4.14 4.141 4.14 4.141 4.138 4.146 4.144 4.143 4.149 4.158	 1.72119 -1.579118 0.209178 	 1.72119 -1.579118 0.209178 	 0 0 laserazosSM3
